City_ID,City,Lat,Lon,Max Temp,Humidity,Cloudiness,Wind Speed,Country,Date
0,afaahiti,-17.75,-149.2833,302.08,85,77,9.71,PF,1715038463
1,dzhangala,49.2167,50.3333,284.15,63,29,2.44,KZ,1715038464
2,labytnangi,66.6572,66.4183,254.47,94,30,3.27,RU,1715038464
3,bilibino,68.0546,166.4372,271.05,89,85,1.37,RU,1715038464
4,whitehorse,60.7161,-135.0538,278.6,88,100,2.06,CA,1715038464
5,west%20island,-12.1568,96.8225,300.14,78,40,7.2,CC,1715038465
6,inzhavino,52.3185,42.4937,282.91,91,100,5.87,RU,1715038465
7,port-aux-francais,-49.35,70.2167,280.08,97,100,13.27,TF,1715038465
8,puerto%20ayora,-0.7393,-90.3518,297.34,97,30,0.89,EC,1715038465
9,cam%20pha%20mines,21.0167,107.3,298.16,84,35,1.82,VN,1715038466
10,college,64.8569,-147.8028,274.51,88,100,3.09,US,1715038466
11,bredasdorp,-34.5322,20.0403,287.7,64,0,1.37,ZA,1715038459
12,mananjary,-21.2167,48.3333,295.05,84,54,1.23,MG,1715038466
13,kill%20devil%20hills,36.0307,-75.676,297.15,86,0,8.75,US,1715038467
14,cadale,2.7603,46.3222,301.13,80,100,6.33,SO,1715038467
15,sinabang,2.4803,96.3801,298.94,93,100,2.54,ID,1715038467
16,kapuskasing,49.4169,-82.4331,289.2,39,75,4.12,CA,1715038467
17,kez,57.8979,53.7152,272.88,84,100,3.84,RU,1715038468
18,kingston,17.997,-76.7936,302.68,79,40,8.75,JM,1715038310
19,nova%20sintra,14.8667,-24.7167,295.92,80,3,9.34,CV,1715038468
20,neiafu,-18.65,-173.9833,303.53,84,40,3.6,TO,1715038468
21,hadibu,12.65,54.0333,302.19,75,57,2.53,YE,1715038469
22,arraial%20do%20cabo,-22.9661,-42.0278,297.13,88,0,5.66,BR,1715038469
23,atafu%20village,-8.5421,-172.5159,303.09,74,39,4.89,TK,1715038469
24,ketchikan,55.3422,-131.6461,283.14,71,75,7.2,US,1715038469
25,waitangi,-43.9535,-176.5597,284.16,80,92,3.13,NZ,1715038470
26,kapa'a,22.0752,-159.319,301.14,75,100,6.69,US,1715038421
27,la%20sarre,48.8002,-79.1996,284.4,62,99,2.92,CA,1715038179
28,adamstown,-25.066,-130.1015,295.04,78,46,8.28,PN,1715038470
29,juan%20griego,11.0817,-63.9655,299.81,85,88,4.87,VE,1715038471
30,daru,-9.0763,143.2092,299.96,87,96,6.64,PG,1715038471
31,remire-montjoly,4.9167,-52.2667,301.17,89,100,5.14,GF,1715038471
32,edinburgh%20of%20the%20seven%20seas,-37.0676,-12.3116,287.3,68,67,9.29,SH,1715038471
33,iqaluit,63.7506,-68.5145,271.0,69,20,3.09,CA,1715038213
34,carutapera,-1.195,-46.02,298.21,95,100,1.99,BR,1715038472
35,yellowknife,62.456,-114.3525,291.71,48,20,5.14,CA,1715038472
36,caleta%20de%20carquin,-11.0925,-77.6267,292.9,87,48,4.65,PE,1715038472
37,zapolyarnyy,69.4154,30.8136,269.75,81,100,3.41,RU,1715038473
38,avarua,-21.2078,-159.775,301.18,89,75,6.17,CK,1715038473
39,tsiombe,-25.3,45.4833,293.19,71,0,3.52,MG,1715038473
40,floro,61.5996,5.0328,286.19,87,100,0.0,NO,1715038473
41,carnarvon,-24.8667,113.6333,292.75,59,0,7.45,AU,1715038474
42,port%20elizabeth,-33.918,25.5701,291.66,96,75,1.54,ZA,1715038474
43,thompson,55.7435,-97.8558,290.24,34,40,2.57,CA,1715038474
44,geraldton,-28.7667,114.6,283.38,81,1,3.09,AU,1715038289
45,namsos,64.4662,11.4957,277.18,70,2,5.14,NO,1715038475
46,aldinga%20beach,-35.2793,138.4604,292.41,51,0,2.23,AU,1715038475
47,huntingburg,38.2989,-86.955,297.2,73,0,3.09,US,1715038475
48,nuuk,64.1835,-51.7216,270.49,68,20,6.71,GL,1715038227
49,didwana,27.4,74.5667,303.2,19,28,2.21,IN,1715038476
50,lata,40.1629,-8.3327,284.77,97,19,0.53,PT,1715038476
51,kerikeri,-35.2268,173.9474,293.1,77,9,3.13,NZ,1715038476
52,usol'ye-sibirskoye,52.7519,103.6453,285.58,65,96,3.95,RU,1715038476
53,niwai,26.35,75.9167,304.54,17,39,2.75,IN,1715038477
54,ilulissat,69.2167,-51.1,268.16,68,100,3.09,GL,1715038477
55,tommot,58.9564,126.2925,282.86,81,100,1.96,RU,1715038477
56,escanaba,45.7453,-87.0646,290.13,39,0,2.57,US,1715038382
57,hawaiian%20paradise%20park,19.5933,-154.9731,298.72,88,100,1.54,US,1715038478
58,puerto%20natales,-51.7236,-72.4875,271.38,91,19,1.48,CL,1715038298
59,tual,-5.6667,132.75,300.57,83,100,7.14,ID,1715038478
60,ushuaia,-54.8,-68.3,273.96,93,100,2.06,AR,1715038293
61,hamilton,39.1834,-84.5333,294.91,91,100,2.57,US,1715038215
62,margaret%20river,-33.95,115.0667,286.27,82,8,3.27,AU,1715038479
63,bethel,41.3712,-73.414,295.2,68,0,2.57,US,1715038479
64,slavyanka,42.8633,131.3847,283.72,59,100,6.54,RU,1715038479
65,castro,-24.7911,-50.0119,290.32,69,0,1.77,BR,1715038480
66,puerto%20rico,-26.796,-55.024,293.99,72,19,1.68,AR,1715038351
67,dunedin,-45.8742,170.5036,285.22,54,79,3.69,NZ,1715038274
68,igarka,67.4667,86.5833,266.0,92,100,5.81,RU,1715038480
69,st.%20john's,47.5649,-52.7093,279.25,79,100,7.2,CA,1715038481
70,dudinka,69.4058,86.1778,259.05,99,99,2.17,RU,1715038481
71,new%20norfolk,-42.7826,147.0587,281.87,65,6,0.97,AU,1715038481
72,paracuru,-3.41,-39.0306,300.99,87,100,3.3,BR,1715038481
73,akim%20oda,5.9231,-0.9951,298.26,91,75,1.08,GH,1715038482
74,iskateley,67.6803,53.1512,262.6,91,83,4.02,RU,1715038482
75,iquique,-20.2208,-70.1431,292.17,80,60,1.52,CL,1715038233
76,coquimbo,-29.9533,-71.3436,286.0,82,0,2.06,CL,1715038350
77,papatowai,-46.5619,169.4708,283.87,73,76,5.8,NZ,1715038483
78,kodiak,57.79,-152.4072,279.88,81,40,4.12,US,1715038483
79,sorong,-0.8833,131.25,298.45,87,100,9.4,ID,1715038483
80,wailua%20homesteads,22.0669,-159.378,300.39,75,100,6.69,US,1715038402
81,otjimbingwe,-22.35,16.1333,293.11,30,6,1.8,NA,1715038484
82,haiku-pauwela,20.9219,-156.3051,299.35,77,40,10.29,US,1715038484
83,kodinar,20.7903,70.7031,299.77,86,0,5.13,IN,1715038485
84,trinidad,-14.8333,-64.9,303.14,79,75,0.0,BO,1715038485
85,choma,-16.8065,26.9531,290.56,58,0,1.72,ZM,1715038485
86,kailua-kona,19.6406,-155.9956,300.13,80,75,4.63,US,1715038485
87,badger,64.8,-147.5333,274.46,90,100,3.09,US,1715038485
88,port%20alberni,49.2413,-124.8028,287.1,74,90,4.92,CA,1715038239
89,albany,42.6001,-73.9662,292.89,61,100,0.45,US,1715038244
90,laishevo,55.4046,49.5504,275.27,84,90,1.96,RU,1715038486
91,blackmans%20bay,-43.0167,147.3167,281.22,61,7,0.3,AU,1715038486
92,olonkinbyen,70.9221,-8.7187,273.37,97,100,7.68,SJ,1715038487
93,grytviken,-54.2811,-36.5092,273.93,85,64,4.51,GS,1715038487
94,lihue,21.9789,-159.3672,300.73,68,100,6.69,US,1715038487
95,prineville,44.2999,-120.8345,286.54,51,75,7.2,US,1715038487
96,kavaratti,10.5669,72.642,303.32,69,82,3.85,IN,1715038488
97,chonchi,-42.6128,-73.8092,278.22,98,100,2.64,CL,1715038488
98,amasra,41.7463,32.3863,281.82,75,0,2.39,TR,1715038488
99,roma,43.2128,-75.4557,290.23,39,0,5.14,US,1715038488
100,qarqaraly,49.4058,75.4742,280.46,61,100,3.01,KZ,1715038489
101,wanning,18.8003,110.3967,300.33,82,97,1.05,CN,1715038489
102,flying%20fish%20cove,-10.4217,105.6791,297.97,94,75,5.14,CX,1715038489
103,jiexiu,37.0244,111.9125,292.99,33,0,0.62,CN,1715038489
104,sengkang,-4.1279,120.0297,299.39,92,78,1.39,ID,1715038490
105,kudymkar,59.0173,54.656,271.21,94,97,4.36,RU,1715038490
106,tizi-n-tleta,36.5457,4.0571,289.18,60,100,2.25,DZ,1715038490
107,mandera,3.9366,41.867,300.42,74,97,3.37,KE,1715038490
108,chibougamau,49.9168,-74.3659,282.94,57,20,5.66,CA,1715038491
109,zyryanskoye,56.8306,86.6258,276.36,72,3,1.76,RU,1715038491
110,buka,40.8108,69.1986,293.29,41,52,1.25,UZ,1715038491
111,novodvinsk,64.4165,40.8122,270.81,73,97,0.52,RU,1715038491
112,invercargill,-46.4,168.35,282.05,94,99,2.24,NZ,1715038492
113,susuman,62.7833,148.1667,273.7,76,33,1.34,RU,1715038492
114,uturoa,-16.7333,-151.4333,300.89,80,51,9.66,PF,1715038492
115,anadyr,64.75,177.4833,270.43,86,0,2.0,RU,1715038492
116,okhotsk,59.3833,143.3,275.74,85,72,2.45,RU,1715038493
117,raja,8.4596,25.678,304.07,33,98,1.25,SS,1715038493
118,fort%20bragg,35.139,-79.006,298.23,84,100,2.57,US,1715038493
119,akureyri,65.6835,-18.0878,278.11,65,40,3.6,IS,1715038493
120,longyearbyen,78.2186,15.6401,270.06,74,75,1.03,SJ,1715038494
121,port%20mathurin,-19.6833,63.4167,298.95,74,47,11.28,MU,1715038494
122,udachny,66.4167,112.4,272.84,98,96,9.67,RU,1715038494
123,teruel,40.6667,-0.6667,278.66,83,47,1.76,ES,1715038494
124,kyshtovka,56.555,76.6271,277.78,55,77,2.24,RU,1715038494
125,walvis%20bay,-22.9575,14.5053,287.64,100,0,5.14,NA,1715038495
126,pacasmayo,-7.4006,-79.5714,293.22,81,23,6.33,PE,1715038495
127,pirallahi,40.4723,50.333,286.23,84,100,14.35,AZ,1715038495
128,ostersund,63.1792,14.6357,276.4,70,5,3.6,SE,1715038495
129,cody,44.5263,-109.0565,284.05,47,75,6.69,US,1715038496
130,ofunato,39.0717,141.7167,288.16,96,100,2.43,JP,1715038496
131,ust-nera,64.5667,143.2,276.74,79,38,2.69,RU,1715038496
132,nizao,18.25,-70.2,298.41,83,1,3.25,DO,1715038496
133,suva,-18.1416,178.4415,299.86,94,75,2.06,FJ,1715038497
134,saint-pierre,-21.3393,55.4781,296.97,73,0,6.69,RE,1715038497
135,vorgashor,67.5833,63.95,254.71,100,83,3.26,RU,1715038497
136,saudarkrokur,65.7461,-19.6394,278.14,67,76,4.15,IS,1715038497
137,trujillo,-8.116,-79.03,291.13,94,100,5.14,PE,1715038498
138,tiksi,71.6872,128.8694,271.48,89,72,2.62,RU,1715038498
139,malakal,9.5334,31.6605,306.15,27,14,1.72,SS,1715038498
140,moramanga,-18.9333,48.2,286.51,99,59,1.35,MG,1715038498
141,lulea,65.5842,22.1547,272.19,69,100,3.09,SE,1715038499
142,kirensk,57.7853,108.1119,282.57,71,80,4.47,RU,1715038499
143,malpe,13.35,74.7167,301.76,71,93,0.88,IN,1715038499
144,kuta,-8.7233,115.1723,298.15,100,40,1.03,ID,1715038499
145,myeik,12.4333,98.6,300.71,86,14,1.06,MM,1715038500
146,jamestown,42.097,-79.2353,289.95,36,0,4.12,US,1715038374
147,baiti,13.745,-14.7482,303.91,24,7,5.12,SN,1715038500
148,sitka,57.0531,-135.33,280.73,73,91,2.73,US,1715038400
149,revelstoke,50.9832,-118.2023,288.16,38,40,1.03,CA,1715038212
150,hoemul-li,41.4339,129.67,283.92,84,100,1.71,KP,1715038501
151,vilyuchinsk,52.9306,158.4028,277.3,79,97,2.69,RU,1715038501
152,kruisfontein,-34.0033,24.7314,286.97,78,2,2.55,ZA,1715038501
153,rapar,23.5667,70.6333,300.56,66,0,4.86,IN,1715038503
154,edd,13.9297,41.6925,302.15,78,79,2.36,ER,1715038503
155,belyy%20yar,53.6039,91.3903,276.09,93,0,0.0,RU,1715038503
156,dryden,49.7833,-92.7503,294.31,28,40,5.66,CA,1715038503
157,natal,-5.795,-35.2094,300.27,89,40,2.06,BR,1715038366
158,broome,42.2506,-75.833,293.36,42,0,1.54,US,1715038504
159,utrik,11.2278,169.8474,300.47,82,90,8.68,MH,1715038504
160,holualoa,19.6228,-155.9522,298.06,80,75,4.63,US,1715038504
161,dawei,14.0833,98.2,300.08,83,26,1.34,MM,1715038505
162,sooke,48.3746,-123.7276,287.72,75,7,10.29,CA,1715038505
163,puerto%20real,36.5282,-6.1901,290.24,82,0,0.0,ES,1715038505
164,yeniseysk,58.4497,92.1703,275.34,87,28,2.24,RU,1715038505
165,shenjiamen,29.9576,122.298,291.87,85,100,1.09,CN,1715038506
166,cururupu,-1.8283,-44.8683,297.24,97,99,0.45,BR,1715038506
167,morehead%20city,34.7229,-76.726,297.15,86,0,7.2,US,1715038443
168,sao%20joao%20da%20barra,-21.6403,-41.0511,296.2,86,2,4.87,BR,1715038507
169,moose%20jaw,50.4001,-105.5344,284.29,93,100,8.23,CA,1715038507
170,villa%20huidobro,-34.8383,-64.5869,287.54,83,96,2.56,AR,1715038507
171,hami,42.8,93.45,297.7,22,0,6.14,CN,1715038507
172,hasaki,35.7333,140.8333,292.37,80,100,10.98,JP,1715038508
173,fale%20old%20settlement,-9.3852,-171.2468,303.29,71,27,5.04,TK,1715038508
174,ola,59.5833,151.2833,273.23,83,87,1.74,RU,1715038508
175,gadzhiyevo,69.2551,33.3362,270.29,64,100,7.14,RU,1715038508
176,lubang,13.8584,120.124,301.52,74,13,6.34,PH,1715038509
177,buurhakaba,2.8026,44.0781,297.87,87,98,3.93,SO,1715038509
178,dzilam%20gonzalez,21.2833,-88.9333,303.07,58,1,3.48,MX,1715038509
179,bamboo%20flat,11.7,92.7167,300.2,94,20,1.03,IN,1715038509
180,weno,7.4515,151.8468,304.12,79,100,2.57,FM,1715038510
181,eureka,40.8021,-124.1637,286.62,83,89,1.79,US,1715038510
182,richards%20bay,-28.783,32.0377,292.56,78,0,4.12,ZA,1715038510
183,plast,54.3691,60.8136,276.32,84,49,3.96,RU,1715038510
184,mweka,-4.85,21.5667,294.27,66,21,0.5,CD,1715038511
185,antsiranana,-12.2787,49.2917,297.75,78,100,7.69,MG,1715038511
186,sangueya,10.7,-14.3667,298.59,89,8,1.68,GN,1715038511
187,hoeyang,38.7103,127.5983,281.71,94,100,4.25,KP,1715038511
188,zamboanga,6.9103,122.0739,302.13,84,20,1.54,PH,1715038511
189,kiruna,67.8557,20.2251,270.66,74,100,5.14,SE,1715038512
190,bubaque,11.2833,-15.8333,299.41,74,9,6.25,GW,1715038512
191,ormara,25.2088,64.6357,300.65,77,0,5.73,PK,1715038512
192,chagoda,59.164,35.3285,269.88,69,69,1.98,RU,1715038513
193,nagqu,31.5,92.0,273.56,64,71,1.9,CN,1715038513
194,hermanus,-34.4187,19.2345,287.48,65,48,2.81,ZA,1715038513
195,piti%20village,13.4626,144.6933,302.98,71,20,4.12,GU,1715038513
196,ifrane,33.3333,-5.25,284.63,66,1,1.57,MA,1715038514
197,klyuchi,52.2667,79.1667,278.28,59,63,3.49,RU,1715038514
198,salinopolis,-0.6136,-47.3561,300.13,86,93,4.2,BR,1715038225
199,nadi,-17.8,177.4167,303.15,66,75,4.12,FJ,1715038514
200,sisimiut,66.9395,-53.6735,266.78,81,74,3.1,GL,1715038515
201,greymouth,-42.4667,171.2,284.28,47,81,1.73,NZ,1715038515
202,dharan,26.8125,87.2835,294.65,64,8,2.88,NP,1715038515
203,aripuana,-9.1667,-60.6333,299.9,81,48,0.94,BR,1715038515
204,madimba,-10.4,40.3333,297.02,92,12,3.88,TZ,1715038516
205,ribeira%20grande,38.5167,-28.7,291.37,88,40,6.26,PT,1715038516
206,taunsa,30.7048,70.6505,303.29,22,0,0.46,PK,1715038516
207,punta%20arenas,-53.15,-70.9167,275.21,93,40,2.06,CL,1715038516
208,panaba,21.2833,-88.2667,307.72,36,1,7.38,MX,1715038517
209,taro,-8.3862,115.28,294.18,87,62,0.22,ID,1715038517
210,tamandare,-8.7597,-35.1047,298.94,90,100,2.4,BR,1715038517
211,sergeyevka,53.88,67.4158,281.72,82,55,6.27,KZ,1715038517
212,aykhal,66.0,111.5,273.64,93,96,10.53,RU,1715038518
213,dunay,42.8803,132.3375,282.99,89,100,1.06,RU,1715038518
214,mukalla,14.5425,49.1242,301.5,81,7,2.62,YE,1715038518
215,vadso,70.0744,29.7487,270.64,86,40,4.12,NO,1715038518
216,stanley,54.868,-1.6985,283.03,95,75,2.57,GB,1715038519
217,touros,-5.1989,-35.4608,299.36,88,68,3.81,BR,1715038519
218,lebu,-37.6167,-73.65,284.66,93,100,11.24,CL,1715038519
219,yelizovo,53.1873,158.3805,277.23,70,75,4.0,RU,1715038519
220,contai,21.7786,87.7536,301.24,88,48,5.03,IN,1715038520
221,pandan,14.0453,124.1694,302.08,75,29,2.11,PH,1715038520
222,svetlyy,54.675,20.1347,285.02,90,93,2.8,RU,1715038520
223,vernon,50.2581,-119.2691,290.89,35,100,2.24,CA,1715038520
224,khowai,24.1,91.6333,294.33,91,85,2.59,IN,1715038521
225,cabo%20san%20lucas,22.8909,-109.9124,301.32,56,100,2.06,MX,1715038344
226,salalah,17.0151,54.0924,303.2,79,40,2.57,OM,1715038521
227,betio%20village,1.358,172.9211,305.17,76,12,5.2,KI,1715038521
228,somerset%20east,-32.7217,25.588,293.37,29,0,4.72,ZA,1715038521
229,nueva%20esperanza,15.2667,-87.6,303.94,63,3,2.59,HN,1715038522
230,bhuban,20.8833,85.8333,297.48,82,23,2.74,IN,1715038522
231,kuanda,56.3161,116.0806,287.9,45,100,0.64,RU,1715038522
232,la%20foa,-21.7108,165.8276,297.54,56,0,3.86,NC,1715038522
233,serdar,38.9764,56.2757,293.07,73,85,5.95,TM,1715038523
234,talnakh,69.4865,88.3972,258.82,98,99,2.91,RU,1715038523
235,la%20ronge,55.1001,-105.2842,287.29,51,75,6.69,CA,1715038523
236,akrehamn,59.2667,5.1833,283.38,87,100,1.54,NO,1715038523
237,howrah,22.5892,88.3103,296.15,88,100,2.06,IN,1715038524
238,hammerfest,70.6634,23.6821,271.4,93,75,2.06,NO,1715038524
239,piriapolis,-34.8682,-55.2744,291.24,99,100,2.57,UY,1715038524
240,mossel%20bay,-34.1831,22.146,289.03,76,0,1.87,ZA,1715038524
241,luderitz,-26.6481,15.1594,287.7,76,0,3.4,NA,1715038525
242,manacapuru,-3.2997,-60.6206,297.68,92,100,2.85,BR,1715038525
243,guerrero%20negro,27.9769,-114.0611,290.8,63,22,10.03,MX,1715038525
244,dumas,35.8656,-101.9732,298.49,7,0,10.8,US,1715038518
245,pisco,-13.7,-76.2167,293.18,83,0,7.72,PE,1715038526
246,ust-tsilma,65.441,52.1498,264.6,97,100,1.34,RU,1715038526
247,codrington,-38.2667,141.9667,286.61,76,5,2.62,AU,1715038526
248,nogliki,51.8333,143.1667,271.12,94,100,2.68,RU,1715038527
249,changyon,38.2508,125.0961,285.23,84,100,6.22,KP,1715038527
250,tura,25.5198,90.2201,294.03,93,100,1.33,IN,1715038527
251,sakiet%20sidi%20youssef,36.2229,8.3555,289.31,54,100,0.33,TN,1715038527
252,yeppoon,-23.1333,150.7333,297.73,77,29,8.22,AU,1715038528
253,fort-shevchenko,44.5086,50.263,286.49,54,100,5.01,KZ,1715038528
254,port%20lincoln,-34.7333,135.8667,289.49,76,0,3.29,AU,1715038528
255,calderitas,18.55,-88.25,304.21,70,20,6.17,MX,1715038528
256,mount%20pearl,47.5166,-52.7813,278.79,80,100,7.2,CA,1715038478
257,la%20passe,45.5549,-0.8967,286.47,87,57,6.21,FR,1715038529
258,qaqortoq,60.7167,-46.0333,271.98,74,1,1.05,GL,1715038529
259,whakatane,-37.9585,176.9854,285.8,89,100,4.42,NZ,1715038529
260,petropavlovsk-kamchatsky,53.0452,158.6483,276.48,78,75,4.0,RU,1715038530
261,newman,37.3138,-121.0208,296.09,40,25,1.79,US,1715038530
262,bridgewater,44.3835,-64.5155,282.97,93,100,0.51,CA,1715038530
263,kidal,18.4411,1.4078,306.64,9,95,4.51,ML,1715038530
264,kyren,51.6828,102.1408,288.68,45,85,2.68,RU,1715038531
265,laguna,38.421,-121.4238,296.61,32,0,4.63,US,1715038531
266,atvidaberg,58.2015,15.9977,277.03,83,14,2.21,SE,1715038531
267,abbeville,50.1,1.8333,284.13,91,16,1.02,FR,1715038531
268,pingliang,35.5392,106.6861,290.11,37,90,0.81,CN,1715038532
269,viedma,-40.8135,-62.9967,283.42,77,0,5.2,AR,1715038472
270,callao,-12.0667,-77.15,296.88,88,40,5.66,PE,1715038532
271,mariehamn,60.0973,19.9348,275.83,80,0,2.06,AX,1715038532
272,medicine%20hat,50.0501,-110.6683,291.7,40,100,4.12,CA,1715038533
273,villa%20gesell,-37.2639,-56.973,288.74,88,100,6.89,AR,1715038432
274,bandon,51.7469,-8.7425,285.92,93,13,3.57,IE,1715038533
275,selebi-phikwe,-21.979,27.8498,289.06,41,0,2.16,BW,1715038533
276,labrador%20city,52.9463,-66.9114,278.25,70,75,4.12,CA,1715038534
277,al%20ghayzah,16.2079,52.176,302.42,77,0,3.9,YE,1715038458
278,quellon,-43.1167,-73.6167,279.0,91,100,3.57,CL,1715038534
279,dondo,-19.6094,34.7431,292.88,93,0,1.51,MZ,1715038534
280,puerto%20baquerizo%20moreno,-0.9,-89.6,296.84,88,7,3.41,EC,1715038330
281,sao%20vicente,-23.9631,-46.3919,304.41,26,0,1.5,BR,1715038505
282,praia%20da%20vitoria,38.7333,-27.0667,292.29,88,75,11.9,PT,1715038535
283,port%20isabel,26.0734,-97.2086,303.19,79,100,8.23,US,1715038536
284,isafjordur,66.0755,-23.124,274.71,94,100,3.88,IS,1715038501
285,nova%20xavantina,-14.6667,-52.35,297.15,71,2,1.64,BR,1715038536
286,serhetabat,35.2799,62.3438,296.02,29,67,2.17,TM,1715038536
287,acajutla,13.5928,-89.8275,302.74,71,27,3.33,SV,1715038537
288,hobyo,5.3505,48.5268,302.08,75,100,5.61,SO,1715038537
289,shinjo,38.7586,140.3008,290.18,98,100,0.95,JP,1715038537
290,sanctuary%20point,-35.1114,150.629,290.79,70,72,2.39,AU,1715038537
291,castillos,-34.1667,-53.8333,292.17,98,100,0.33,UY,1715038538
292,grand%20falls-windsor,48.9332,-55.6649,277.87,90,100,0.89,CA,1715038538
293,'ali%20sabieh,11.1558,42.7125,300.22,73,9,3.27,DJ,1715038538
294,namtsy,62.7161,129.6658,283.68,64,100,7.21,RU,1715038539
295,kharp,66.8014,65.8081,254.1,85,30,2.55,RU,1715038539
296,vorkuta,67.5,64.0,254.88,100,93,1.34,RU,1715038539
297,santiago,-33.4569,-70.6483,287.2,54,0,4.12,CL,1715038307
298,rabaul,-4.1967,152.1721,302.08,73,98,0.91,PG,1715038540
299,hithadhoo,-0.6,73.0833,302.45,74,100,3.51,MV,1715038540
300,igbor,7.4527,8.6098,296.71,83,100,5.11,NG,1715038540
301,mcminnville,45.2101,-123.1987,287.29,66,40,7.72,US,1715038541
302,harper,4.375,-7.7169,300.23,84,93,1.78,LR,1715038541
303,chakari,-18.0629,29.8925,291.02,49,0,3.35,ZW,1715038541
304,bodo,67.28,14.405,278.02,62,0,5.14,NO,1715038541
305,tobruk,32.0836,23.9764,290.64,77,0,3.19,LY,1715038542
306,saipan,15.1355,145.701,304.54,62,40,5.66,MP,1715038542
307,trincomalee,8.5711,81.2335,300.99,82,18,2.3,LK,1715038542
308,ancud,-41.8697,-73.8203,280.42,93,97,4.49,CL,1715038353
309,kone,-21.0595,164.8658,300.43,43,4,2.8,NC,1715038543
310,hun,29.1268,15.9477,295.37,26,0,4.05,LY,1715038543
311,sao%20miguel%20do%20araguaia,-13.275,-50.1628,299.08,59,8,0.36,BR,1715038543
312,san%20patricio,28.017,-97.5169,302.55,76,36,7.41,US,1715038543
313,vallenar,-28.5708,-70.7581,286.81,48,0,1.22,CL,1715038336
314,constantia,44.1833,28.65,283.54,75,55,7.0,RO,1715038544
315,mourenx,43.3833,-0.6,285.01,93,75,4.12,FR,1715038544
316,pangody,65.85,74.4859,258.32,98,39,1.87,RU,1715038544
317,tosontsengel,48.7567,98.2839,286.03,30,45,0.97,MN,1715038545
318,belmonte,-15.8631,-38.8828,297.85,86,0,4.11,BR,1715038545
319,cox's%20bazar,21.4532,91.9798,299.96,78,99,1.61,BD,1715038545
320,benghazi,32.1167,20.0667,291.68,60,0,3.56,LY,1715038545
321,east%20london,-33.0153,27.9116,295.04,48,0,1.22,ZA,1715038546
322,modimolle,-24.7,28.4,289.07,33,0,3.39,ZA,1715038546
323,freetown,8.484,-13.2299,300.64,86,72,2.52,SL,1715038546
324,severo-yeniseyskiy,60.3725,93.0408,272.91,88,79,4.92,RU,1715038546
325,nikolayevsk-on-amure,53.1406,140.73,278.27,53,7,1.79,RU,1715038546
326,nemuro,43.3236,145.575,280.43,99,100,4.74,JP,1715038547
327,port%20douglas,-16.4833,145.4667,297.71,82,78,4.52,AU,1715038547
328,bac%20lieu,9.285,105.7244,302.98,66,15,3.89,VN,1715038547
329,malanje,-9.5402,16.341,290.69,69,5,0.77,AO,1715038547
330,sungai%20penuh,-2.0833,101.3833,293.03,97,100,0.63,ID,1715038548
331,jian'ou,27.0469,118.3253,294.76,81,100,0.36,CN,1715038548
332,lashio,22.9333,97.75,294.3,58,92,0.6,MM,1715038548
333,namibe,-15.1961,12.1522,295.87,70,3,3.0,AO,1715038548
334,necochea,-38.5473,-58.7368,284.54,76,4,3.31,AR,1715038549
335,kattivakkam,13.2167,80.3167,305.43,84,50,8.54,IN,1715038549
336,tolanaro,-25.0319,46.9987,295.19,83,40,6.17,MG,1715038549
337,saint-paul,-21.0096,55.2707,297.21,71,5,2.11,RE,1715038549
338,sterling,39.0062,-77.4286,296.16,80,100,1.54,US,1715038469
339,kogalym,62.2654,74.4791,268.14,86,100,4.47,RU,1715038426
340,arzgir,45.3728,44.2206,282.19,81,80,0.54,RU,1715038550
341,klintsy,52.7602,32.2393,285.3,98,100,4.41,RU,1715038550
342,soe,-9.8607,124.284,294.88,84,52,0.75,ID,1715038551
343,swan%20hill,-35.3378,143.5544,290.24,51,0,3.4,AU,1715038551
344,colonia,50.9333,6.95,287.02,93,75,2.06,DE,1715038513
345,thunder%20bay,48.4001,-89.3168,288.1,44,100,5.66,CA,1715038489
346,pokaran,26.9167,71.9167,304.02,20,0,4.02,IN,1715038552
347,nelson%20bay,-32.7167,152.15,292.65,79,43,0.89,AU,1715038552
348,tofol,5.3248,163.0078,304.03,70,75,4.12,FM,1715038552
349,langepas,61.2544,75.2124,273.37,85,100,5.15,RU,1715038552
350,zahedan,29.4963,60.8629,293.1,42,0,0.0,IR,1715038553
351,konnur,16.2,74.75,297.97,59,0,1.83,IN,1715038553
352,queenstown,-31.8976,26.8753,287.65,41,0,2.18,ZA,1715038553
353,vrutky,49.1133,18.9171,288.2,83,98,0.64,SK,1715038553
354,vaghodia,22.3,73.3833,301.07,78,0,2.06,IN,1715038554
355,hanceville,34.0607,-86.7675,300.49,69,26,2.94,US,1715038554
356,sibiti,-3.6819,13.3499,294.97,98,54,0.83,CG,1715038554
357,palikir%20-%20national%20government%20center,6.9248,158.1611,301.62,89,100,5.14,FM,1715038554
358,kirakira,-10.4544,161.9205,303.97,68,96,4.08,SB,1715038555
359,darwin,-12.4611,130.8418,299.2,59,20,4.12,AU,1715038555
360,kalabo,-14.97,22.6814,291.88,64,45,1.73,ZM,1715038555
361,amahai,-3.3333,128.9167,298.27,93,100,1.15,ID,1715038555
362,holbrook,40.8123,-73.0784,293.89,91,75,2.57,US,1715038556
363,monterey,36.2505,-121.2516,293.8,38,82,6.05,US,1715038556
364,ravar,31.2656,56.8055,295.56,32,53,0.96,IR,1715038556
365,el%20bauga,18.262,33.9081,299.49,18,0,6.99,SD,1715038518
366,esens,53.6487,7.6127,283.7,90,100,2.62,DE,1715038557
367,amqui,48.4638,-67.4313,283.68,59,49,4.46,CA,1715038557
368,naryn,41.4287,75.9911,280.65,63,65,2.19,KG,1715038557
369,bosaso,11.2842,49.1816,303.18,71,60,1.25,SO,1715038557
370,georgetown,5.4112,100.3354,300.34,86,20,1.54,MY,1715038553
371,sangmelima,2.9333,11.9833,295.35,93,98,1.27,CM,1715038558
372,lompoc,34.6391,-120.4579,296.49,55,0,7.72,US,1715038558
373,marsh%20harbour,26.5412,-77.0636,297.21,75,4,7.25,BS,1715038558
374,horta,38.5333,-28.6333,290.95,93,40,6.26,PT,1715038558
375,magong,23.5654,119.5863,297.68,89,100,8.03,TW,1715038559
376,basmat,19.3167,77.1667,304.33,27,0,2.64,IN,1715038559
377,mount%20gambier,-37.8333,140.7667,286.42,73,11,2.4,AU,1715038559
378,inirida,3.8653,-67.9239,297.28,97,98,1.93,CO,1715038559
379,kuqa,41.7278,82.9364,296.33,25,91,3.85,CN,1715038560
380,bumba,2.1833,22.4667,298.44,65,19,0.53,CD,1715038560
381,pervomayskoye,43.919,46.7102,281.01,81,51,0.5,RU,1715038560
382,coalcoman%20de%20vazquez%20pallares,18.7833,-103.15,304.28,23,100,2.67,MX,1715038560
383,yuzhno-kurilsk,44.0306,145.8556,278.91,99,100,3.82,RU,1715038561
384,west%20kelowna,49.8625,-119.5833,287.88,51,100,2.06,CA,1715038561
385,aasiaat,68.7098,-52.8699,261.35,88,77,2.44,GL,1715038562
386,gizo,-8.103,156.8419,302.1,75,89,1.14,SB,1715038562
387,sabancuy,18.9667,-91.1833,303.18,70,0,5.38,MX,1715038562
388,dadukou,26.5479,101.7054,292.72,68,97,1.01,CN,1715038563
389,gouyave,12.1646,-61.7296,301.58,79,20,5.66,GD,1715038563
390,kasongo-lunda,-6.4667,16.8167,294.93,67,22,0.91,CD,1715038563
391,ceerigaabo,10.6162,47.368,292.51,78,96,1.19,SO,1715038564
392,buryn',51.1991,33.8352,286.2,87,87,5.24,UA,1715038564
393,gaspe,48.8334,-64.4819,282.27,81,75,3.6,CA,1715038564
394,brumadinho,-20.1433,-44.1997,295.44,86,3,1.43,BR,1715038564
395,thaton,16.9206,97.3714,301.42,69,0,1.55,MM,1715038565
396,fuglafjordur,62.244,-6.814,277.41,80,43,3.76,FO,1715038565
397,monze,-16.2833,27.4833,291.71,53,14,2.15,ZM,1715038565
398,barranca,-10.75,-77.7667,292.74,85,35,4.08,PE,1715038565
399,malango,-2.9627,119.9001,295.49,92,100,0.33,ID,1715038566
400,lyakhavichy,53.0388,26.2656,283.71,95,100,3.79,BY,1715038566
401,tibati,6.4667,12.6333,297.17,64,78,0.33,CM,1715038566
402,tera,14.0078,0.7531,303.74,43,100,2.43,NE,1715038566
403,coihueco,-36.6167,-71.8333,285.56,67,40,5.66,CL,1715038567
404,novoanninskiy,50.5287,42.6747,284.53,73,65,6.2,RU,1715038567
405,soio,-6.1349,12.3689,299.2,92,28,2.8,AO,1715038567
406,mili,6.0815,171.735,301.42,81,95,9.05,MH,1715038567
407,muroto-misakicho,33.2833,134.15,293.82,94,100,4.96,JP,1715038568
408,anxiang,29.4,112.15,295.06,82,100,1.36,CN,1715038568
409,gwadar,25.1216,62.3254,301.18,68,0,5.7,PK,1715038568
410,labuan%20bajo,-8.4964,119.8877,300.68,76,37,1.43,ID,1715038569
411,keflavik,64.0049,-22.5624,278.1,93,40,8.75,IS,1715038569
412,ulsteinvik,62.3432,5.8487,282.54,94,21,2.24,NO,1715038569
413,zhangye,38.9342,100.4517,291.57,18,94,1.75,CN,1715038570
414,port%20saint%20john's,-31.6229,29.5448,295.66,48,0,3.35,ZA,1715038459
415,livadiya,42.8692,132.6764,283.11,96,100,3.39,RU,1715038570
416,kulhudhuffushi,6.6221,73.07,302.51,75,73,4.52,MV,1715038570
417,nishinoomote,30.7333,131.0,293.46,82,75,8.75,JP,1715038571
418,lubango,-14.9172,13.4925,287.07,72,2,1.54,AO,1715038571
419,fort%20mcmurray,56.7268,-111.381,291.92,48,75,6.17,CA,1715038363
420,east%20end,34.5507,-92.341,301.09,97,68,2.07,US,1715038571
421,ulladulla,-35.35,150.4667,288.51,80,87,3.45,AU,1715038572
422,fortuna,40.5982,-124.1573,286.47,83,100,4.12,US,1715038572
423,taco%20pozo,-25.6167,-63.2833,294.02,98,82,2.53,AR,1715038573
424,kalifornsky,60.4183,-151.29,280.34,87,75,3.09,US,1715038573
425,rawai,7.7797,98.3253,299.21,73,69,2.09,TH,1715038573
426,banfora,10.6333,-4.7667,300.22,67,64,2.97,BF,1715038573
427,cidreira,-30.1811,-50.2056,295.36,80,4,0.02,BR,1715038574
428,zhangjiakou,40.81,114.8794,289.66,33,3,0.33,CN,1715038574
429,tazacorte,28.629,-17.9293,296.01,68,0,3.6,ES,1715038575
430,guadalupe%20y%20calvo,26.1,-106.9667,292.8,10,30,5.33,MX,1715038575
431,tazovsky,67.4667,78.7,259.05,98,96,3.42,RU,1715038575
432,lorengau,-2.0226,147.2712,301.99,80,99,1.61,PG,1715038575
433,serhiyivka,46.0272,30.3768,285.63,78,23,8.01,UA,1715038576
434,chervyen',53.7059,28.4313,280.32,93,100,1.37,BY,1715038576
435,taroa,8.7058,171.2275,300.83,81,55,9.34,MH,1715038576
436,coahuayana%20de%20hidalgo,18.7,-103.6583,301.1,52,99,2.09,MX,1715038576
437,murghob,38.1702,73.9667,268.47,51,0,2.36,TJ,1715038577
438,kilindoni,-7.9139,39.6668,299.48,82,79,6.52,TZ,1715038577
439,tarhuna,32.435,13.6332,293.51,39,57,5.01,LY,1715038577
440,longboat%20key,27.4125,-82.659,301.64,49,0,4.12,US,1715038577
441,shubarshi,48.5872,57.1869,279.98,83,0,2.82,KZ,1715038578
442,saryaghash,41.45,69.1667,291.11,49,86,2.97,KZ,1715038578
443,leava,-14.3,-178.1667,302.55,78,41,5.17,WF,1715038578
444,ajra,16.1167,74.2,294.29,75,6,1.37,IN,1715038579
445,bardai,11.65,7.2333,301.44,51,98,3.34,NG,1715038579
446,wagar,16.1525,36.2032,301.37,21,2,6.79,SD,1715038579
447,plouzane,48.3833,-4.6167,285.33,94,100,4.63,FR,1715038579
448,akyurt,40.1351,33.0861,281.0,75,0,1.03,TR,1715038580
449,ismailia,30.6043,32.2723,288.91,76,0,3.47,EG,1715038580
450,panjakent,39.4952,67.6093,289.67,50,55,4.29,TJ,1715038580
451,rosarito,32.3333,-117.0333,296.22,58,3,4.66,MX,1715038580
452,sibolga,1.7427,98.7792,298.52,91,100,0.27,ID,1715038581
453,nasiriyah,31.0521,46.261,296.12,62,0,2.92,IQ,1715038581
454,altai,46.3722,96.2583,286.37,23,1,3.63,MN,1715038581
455,an%20nuhud,12.7,28.4333,301.21,14,0,5.41,SD,1715038581
456,eduardo%20castex,-35.915,-64.2945,286.44,84,48,3.5,AR,1715038487
457,ondjiva,-17.0667,15.7333,294.17,35,1,2.57,AO,1715038582
458,matoury,4.8483,-52.3317,301.13,89,100,5.14,GF,1715038582
459,puerto%20san%20jose,13.9256,-90.8244,303.39,70,25,4.58,GT,1715038582
460,ringkobing,56.0901,8.244,284.27,93,100,3.6,DK,1715038583
461,agat%20village,13.3886,144.6585,303.01,71,20,4.12,GU,1715038583
462,conceicao%20da%20barra,-18.5933,-39.7322,296.9,85,1,1.88,BR,1715038583
463,corumba,-19.0092,-57.6533,299.85,42,20,0.81,BR,1715038583
464,targuist,34.9377,-4.3186,285.58,83,0,1.04,MA,1715038584
465,ayr,55.4627,-4.6339,286.1,87,20,1.03,GB,1715038584
466,kourou,5.1552,-52.6478,301.18,93,100,3.02,GF,1715038576
467,gora,51.6664,16.5349,284.31,93,74,3.09,PL,1715038584
468,el%20calafate,-50.3408,-72.2768,270.23,70,13,1.0,AR,1715038533
469,port%20moresby,-9.4431,147.1797,298.83,94,75,5.14,PG,1715038585
470,kalashnikovo,57.2824,35.2262,271.94,65,88,2.6,RU,1715038585
471,shegaon,20.7833,76.6833,304.18,30,4,4.9,IN,1715038585
472,nouadhibou,20.931,-17.0347,292.14,82,65,5.66,MR,1715038586
473,torquay,50.4638,-3.5143,285.57,90,37,1.79,GB,1715038586
474,tongouson,5.0214,120.1328,301.4,75,51,0.57,PH,1715038586
475,flin%20flon,54.7682,-101.865,291.06,32,100,5.66,CA,1715038586
476,kalengwa,-13.4659,25.0027,290.79,76,69,1.95,ZM,1715038459
477,rikaze,29.25,88.8833,278.85,70,99,1.55,CN,1715038587
478,puerto%20leguizamo,-0.1934,-74.7819,298.18,86,79,0.21,CO,1715038587
479,hengchun,22.0042,120.7439,301.18,73,97,3.63,TW,1715038587
480,mitchell,43.7094,-98.0298,290.78,89,100,9.62,US,1715038588
481,boende,-0.2167,20.8667,297.69,70,51,0.59,CD,1715038588
482,pradopolis,-21.3594,-48.0656,299.25,55,5,1.19,BR,1715038588
483,cuorgne,45.3895,7.6499,286.0,84,100,0.34,IT,1715038588
484,poxoreo,-15.8372,-54.3892,297.1,60,1,2.37,BR,1715038589
485,enewetak,11.3474,162.3373,301.05,76,99,8.84,MH,1715038589
486,kununurra,-15.7667,128.7333,297.14,57,60,3.09,AU,1715038589
487,al%20aaroui,35.0118,-3.0045,293.29,72,0,1.03,MA,1715038589
488,fada%20n'gourma,12.0622,0.3578,305.51,40,81,2.38,BF,1715038590
489,nova%20vicosa,-17.8919,-39.3719,298.19,83,0,4.25,BR,1715038590
490,kievka,50.2619,71.5514,282.96,44,98,4.37,KZ,1715038590
491,curillo,1.0333,-75.9191,297.23,92,99,1.06,CO,1715038590
492,fukuecho,32.6881,128.8419,291.35,72,40,3.6,JP,1715038591
493,port%20blair,11.6667,92.75,300.17,94,20,1.03,IN,1715038591
494,mogok,22.9167,96.5,290.31,78,99,0.74,MM,1715038591
495,woolgoolga,-30.1106,153.2007,289.08,79,61,8.08,AU,1715038591
496,tabuk,17.4189,121.4443,302.14,59,26,1.52,PH,1715038592
497,eyl,7.9803,49.8164,301.2,82,69,1.87,SO,1715038592
498,sedhiou,12.7081,-15.5569,298.85,57,7,2.98,SN,1715038592
499,emerald,-23.5333,148.1667,296.67,60,1,4.59,AU,1715038593
500,taman',45.2117,36.7161,285.61,60,5,2.2,RU,1715038593
501,harda%20khas,22.3333,77.1,303.76,26,0,2.03,IN,1715038593
502,muynoq,43.7683,59.0214,289.58,78,26,6.22,UZ,1715038593
503,isangel,-19.55,169.2667,299.21,69,40,4.12,VU,1715038457
504,naraini,25.1833,80.4833,304.74,21,23,4.88,IN,1715038594
505,awjilah,29.1081,21.2869,293.78,31,46,1.8,LY,1715038594
506,kyzylorda,44.8528,65.5092,287.16,88,0,1.0,KZ,1715038594
507,sola,-13.8833,167.55,299.96,77,93,10.77,VU,1715038595
508,faro,37.0194,-7.9322,290.03,67,0,3.6,PT,1715038595
509,egilsstadir,65.2653,-14.3948,277.1,65,0,3.09,IS,1715038595
510,balqash,46.8481,74.995,286.1,60,62,7.39,KZ,1715038596
511,phalodi,27.1333,72.3667,304.41,21,31,2.75,IN,1715038596
512,labuan,5.2767,115.2417,300.35,94,20,0.0,MY,1715038596
513,conception%20bay%20south,47.4999,-52.9981,279.12,85,100,5.75,CA,1715038596
514,baie-saint-paul,47.4411,-70.4986,289.62,59,42,3.47,CA,1715038569
515,grajau,-5.8194,-46.1386,296.33,72,93,1.53,BR,1715038597
516,guanare,9.0418,-69.7421,299.71,76,52,1.11,VE,1715038597
517,glendive,47.1053,-104.7125,287.94,94,100,5.14,US,1715038400
518,nar'yan-mar,67.6713,53.087,262.65,91,84,4.02,RU,1715038598
519,birjand,32.8663,59.2211,292.41,39,0,5.14,IR,1715038598
520,markaz-e%20woluswali-ye%20achin,34.1258,70.7078,294.1,34,0,2.52,AF,1715038599
521,padre%20bernardo,-15.35,-48.5,295.06,68,3,2.0,BR,1715038599
522,sandpoint,48.2766,-116.5533,286.16,73,75,3.09,US,1715038505
523,plettenberg%20bay,-34.0527,23.3716,289.97,57,0,0.49,ZA,1715038599
524,filingue,14.3521,3.3168,305.47,36,92,3.96,NE,1715038600
525,markovo,57.3206,107.0881,283.29,53,85,5.09,RU,1715038600
526,vilyuysk,63.7553,121.6247,275.93,85,100,4.47,RU,1715038600
527,mata-utu,-13.2816,-176.1745,302.51,78,56,6.96,WF,1715038600
528,as%20sulayyil,20.4607,45.5779,301.29,19,8,5.32,SA,1715038601
529,acapulco%20de%20juarez,16.8634,-99.8901,302.05,74,0,5.14,MX,1715038601
530,noumea,-22.2763,166.4572,300.14,99,53,4.69,NC,1715038601
531,palotina,-24.2839,-53.84,297.51,42,3,3.79,BR,1715038391
532,kete%20krachi,7.7939,-0.0498,301.3,78,52,5.53,GH,1715038602
533,mangalia,43.8,28.5833,285.44,75,26,6.38,RO,1715038602
534,luanda,-8.8368,13.2343,300.15,93,75,2.57,AO,1715038602
535,bahar,34.9072,48.4414,280.24,100,75,4.12,IR,1715038602
536,port%20augusta,-32.5,137.7667,291.58,45,0,4.16,AU,1715038603
537,san%20sebastian%20de%20la%20gomera,28.0916,-17.1133,295.03,88,0,2.57,ES,1715038603
538,seminole,28.7086,-81.2081,302.24,65,0,6.17,US,1715038603
539,zabid,14.1951,43.3152,303.14,68,20,2.45,YE,1715038603
540,niquelandia,-14.4739,-48.4597,297.2,59,20,2.12,BR,1715038604
541,caminauit,12.3314,121.0825,302.9,67,75,4.09,PH,1715038604
542,pimenta%20bueno,-11.6725,-61.1936,299.1,83,51,1.57,BR,1715038604
543,margate,51.3813,1.3862,284.99,94,73,3.05,GB,1715038604
544,kudahuvadhoo,2.6708,72.8944,302.39,78,80,4.7,MV,1715038605
545,jiuquan,39.7432,98.5174,289.96,20,64,1.68,CN,1715038605
546,cambria,35.5641,-121.0808,298.46,58,55,6.19,US,1715038339
547,lowestoft,52.4752,1.7516,285.07,86,100,3.6,GB,1715038605
548,shiyan,32.6475,110.7781,293.76,84,100,0.86,CN,1715038573
549,kaiapoi,-43.3783,172.6401,285.68,68,75,1.03,NZ,1715038606
550,gazojak,41.1875,61.4036,298.31,29,100,5.19,TM,1715038606
551,mawlaik,23.6333,94.4167,297.12,65,99,1.0,MM,1715038606
552,keelung,25.1283,121.7419,300.01,78,99,3.56,TW,1715038607
553,kurumkan,54.3,110.3,286.55,44,99,0.89,RU,1715038607
554,nuku'alofa,-21.1333,-175.2,302.34,89,75,2.06,TO,1715038607
555,cannonvale,-20.2833,148.7,296.81,82,48,5.84,AU,1715038608
556,lakatoro,-16.0999,167.4164,300.76,60,81,5.21,VU,1715038457
557,nuriootpa,-34.4833,139.0,291.79,53,0,4.17,AU,1715038608
558,port%20alfred,-33.5906,26.891,292.45,85,0,1.95,ZA,1715038608
559,majene,-3.5403,118.9707,298.99,88,100,1.23,ID,1715038609
560,nyala,12.05,24.8833,300.79,14,0,5.37,SD,1715038609
561,isla%20vista,34.4133,-119.861,297.76,46,10,3.46,US,1715038325
562,boguchany,58.3814,97.4531,276.4,76,28,3.58,RU,1715038609
563,arawa,-6.2132,155.5367,304.34,67,100,1.46,PG,1715038610
564,cricova,47.1389,28.8619,286.0,70,61,4.78,MD,1715038610
565,bashmakovo,53.2133,43.0342,280.74,89,100,6.86,RU,1715038610
566,berdigestyakh,62.0989,126.6992,278.97,92,100,4.33,RU,1715038610
567,libreville,0.3925,9.4537,302.16,89,40,4.12,GA,1715038611
568,salinas,36.6777,-121.6555,295.13,66,0,5.66,US,1715038611
569,hauterive,46.0901,3.4459,284.57,90,71,2.2,FR,1715038611
570,usol'ye,59.4268,56.6808,272.88,98,100,3.68,RU,1715038611
571,vila%20velha,-20.3297,-40.2925,298.12,83,20,1.03,BR,1715038612
572,polyarnyy,69.1989,33.4478,269.76,68,100,5.98,RU,1715038612
